$GPGSV,3,1,09,02,12,295,28,03,22,147,27,06,23,248,33,07,69,277,31*72
$GPGSV,3,2,09,09,61,019,30,16,17,043,21,23,43,070,27,30,42,241,34*70
$GPGSV,3,3,09,28,02,189,*48
$GLGSV,2,1,07,73,35,216,37,70,59,348,36,80,81,343,25,79,23,028,23*65
$GLGSV,2,2,07,69,50,115,22,71,11,323,21,68,03,133,*56
$GPGSV,3,1,09,02,12,295,28,03,22,147,27,06,23,248,33,07,69,277,31*72
$GPGSV,3,2,09,09,61,019,30,16,17,043,21,23,43,070,27,30,42,241,34*70
$GPGSV,3,3,09,28,02,189,*48
$GLGSV,2,1,07,73,35,216,37,70,59,348,36,80,81,343,25,79,23,028,23*65
$GLGSV,2,2,07,69,50,115,22,71,11,323,21,68,03,133,*56
$GPGSA,A,3,02,03,06,07,09,16,23,30,,,,,1.1,0.7,0.8*31
$GPVTG,282.0,T,282.0,M,1.0,N,1.8,K,D*2E
$GPRMC,073501,A,3206.215916,N,03512.421388,E,1.0,282.0,050416,0.0,E,D*1F
$GPGGA,073501,3206.215916,N,03512.421388,E,2,08,0.7,665.0,M,19.0,M,,*4D
$GPGSV,3,1,09,02,12,295,35,03,22,147,27,06,23,248,31,07,69,277,34*79
$GPGSV,3,2,09,09,61,019,31,16,17,043,24,23,43,070,26,30,42,241,35*74
$GPGSV,3,3,09,28,02,189,*48
$GLGSV,2,1,07,73,35,216,36,70,59,348,34,80,81,343,24,79,23,028,21*65
$GLGSV,2,2,07,69,50,115,21,71,11,323,24,68,03,133,*50
$GPGSV,3,1,09,02,12,295,35,03,22,147,27,06,23,248,31,07,69,277,34*79
$GPGSV,3,2,09,09,61,019,31,16,17,043,24,23,43,070,26,30,42,241,35*74
$GPGSV,3,3,09,28,02,189,*48
$GLGSV,2,1,07,73,35,216,36,70,59,348,34,80,81,343,24,79,23,028,21*65
$GLGSV,2,2,07,69,50,115,21,71,11,323,24,68,03,133,*50
$GPGSA,A,3,02,03,06,07,09,16,23,30,,,,,1.1,0.7,0.8*31
$GPVTG,285.0,T,285.0,M,1.5,N,2.7,K,D*27
$GPRMC,073502,A,3206.216128,N,03512.420601,E,1.5,285.0,050416,0.0,E,D*1D
$GPGGA,073502,3206.216128,N,03512.420601,E,2,08,0.7,664.0,M,19.0,M,,*4C
$GPGSV,3,1,09,02,12,295,29,03,22,147,26,06,23,248,34,07,69,277,34*70
$GPGSV,3,2,09,09,61,019,31,16,17,043,23,23,43,070,25,30,42,241,35*70
$GPGSV,3,3,09,28,02,189,*48
$GLGSV,2,1,07,73,35,216,34,70,59,348,34,80,81,343,26,79,23,028,22*66
$GLGSV,2,2,07,69,50,115,27,71,11,323,24,68,03,133,*56
$GPGSV,3,1,09,02,12,295,29,03,22,147,26,06,23,248,34,07,69,277,34*70
$GPGSV,3,2,09,09,61,019,31,16,17,043,23,23,43,070,25,30,42,241,35*70
$GPGSV,3,3,09,28,02,189,*48
$GLGSV,2,1,07,73,35,216,34,70,59,348,34,80,81,343,26,79,23,028,22*66
$GLGSV,2,2,07,69,50,115,27,71,11,323,24,68,03,133,*56
$GPGSA,A,3,02,03,06,07,09,16,23,30,,,,,1.1,0.7,0.8*31
$GPVTG,273.1,T,273.1,M,1.5,N,2.7,K,D*27
$GPRMC,073503,A,3206.216867,N,03512.419911,E,1.5,273.1,050416,0.0,E,D*12
$GPGGA,073503,3206.216867,N,03512.419911,E,2,08,0.7,663.0,M,19.0,M,,*4C
$GPGSV,3,1,09,02,12,295,30,03,22,147,25,06,23,248,33,07,69,277,33*7B
$GPGSV,3,2,09,09,61,019,35,16,17,043,23,23,43,070,27,30,42,241,32*71
$GPGSV,3,3,09,28,02,189,*48
$GLGSV,2,1,07,73,35,216,34,70,59,348,32,80,81,343,28,79,23,028,25*69
$GLGSV,2,2,07,69,50,115,24,71,11,323,29,68,03,133,*58
$GPGSV,3,1,09,02,12,295,30,03,22,147,25,06,23,248,33,07,69,277,33*7B
$GPGSV,3,2,09,09,61,019,35,16,17,043,23,23,43,070,27,30,42,241,32*71
$GPGSV,3,3,09,28,02,189,*48
$GLGSV,2,1,07,73,35,216,34,70,59,348,32,80,81,343,28,79,23,028,25*69
$GLGSV,2,2,07,69,50,115,24,71,11,323,29,68,03,133,*58
$GPGSA,A,3,02,03,06,07,09,16,23,30,,,,,1.1,0.7,0.8*31
$GPVTG,283.5,T,283.5,M,1.5,N,2.7,K,D*27
$GPRMC,073504,A,3206.216903,N,03512.419614,E,1.5,283.5,050416,0.0,E,D*17
$GPGGA,073504,3206.216903,N,03512.419614,E,2,08,0.7,662.0,M,19.0,M,,*43
$GPGSV,3,1,09,02,12,295,32,03,22,147,27,06,23,248,33,07,69,277,37*7F
$GPGSV,3,2,09,09,61,019,37,16,17,043,24,23,43,070,29,30,42,241,37*7F
$GPGSV,3,3,09,28,02,189,*48
$GLGSV,1,1,0,*79
$GPGSV,3,1,09,02,12,295,32,03,22,147,27,06,23,248,33,07,69,277,37*7F
$GPGSV,3,2,09,09,61,019,37,16,17,043,24,23,43,070,29,30,42,241,37*7F
$GPGSV,3,3,09,28,02,189,*48
$GLGSV,1,1,0,*79
$GPGSA,A,3,02,03,06,07,09,16,23,30,,,,,1.1,0.7,0.8*31
$GPVTG,,T,,M,0.0,N,0.0,K,D*26
$GPRMC,073505,A,3206.216905,N,03512.419284,E,0.0,,050416,0.0,E,D*3B
$GPGGA,073505,3206.216905,N,03512.419284,E,2,08,0.7,661.0,M,19.0,M,,*4A
$GPGSV,3,1,09,02,12,295,32,03,22,147,27,06,23,248,33,07,69,277,37*7F
$GPGSV,3,2,09,09,61,019,37,16,17,043,24,23,43,070,29,30,42,241,37*7F
$GPGSV,3,3,09,28,02,189,*48
$GLGSV,1,1,0,*79
$GPGSV,3,1,09,02,12,295,32,03,22,147,27,06,23,248,33,07,69,277,37*7F
$GPGSV,3,2,09,09,61,019,37,16,17,043,24,23,43,070,29,30,42,241,37*7F
$GPGSV,3,3,09,28,02,189,*48
$GLGSV,1,1,0,*79
$GPGSA,A,3,02,03,06,07,09,16,23,30,,,,,1.1,0.7,0.8*31
$GPVTG,,T,,M,0.0,N,0.0,K,D*26
$GPRMC,073506,A,3206.216905,N,03512.419284,E,0.0,,050416,0.0,E,D*38
$GPGGA,073506,3206.216905,N,03512.419284,E,2,08,0.7,661.0,M,19.0,M,,*49
$GPGSV,2,1,08,02,12,295,29,06,23,248,30,07,69,277,34,09,61,019,38*7C
$GPGSV,2,2,08,16,17,043,26,30,42,241,32,23,43,070,,28,02,189,*79
$GLGSV,1,1,0,*79
$GPGSV,2,1,08,02,12,295,29,06,23,248,30,07,69,277,34,09,61,019,38*7C
$GPGSV,2,2,08,16,17,043,26,30,42,241,32,23,43,070,,28,02,189,*79
$GLGSV,1,1,0,*79
$GPGSA,A,3,02,06,07,09,16,30,,,,,,,1.1,0.7,0.8*33
$GPVTG,0.7,T,0.7,M,2.4,N,4.5,K,D*21
$GPRMC,073507,A,3206.216994,N,03512.419186,E,2.4,0.7,050416,0.0,E,D*1F
$GPGGA,073507,3206.216994,N,03512.419186,E,2,06,0.7,661.0,M,19.0,M,,*4F
$GPGSV,3,1,09,02,12,295,36,03,22,147,30,06,23,248,32,07,69,277,36*7D
$GPGSV,3,2,09,09,61,019,37,16,17,043,28,23,43,070,26,30,42,241,37*7C
$GPGSV,3,3,09,28,02,189,*48
$GLGSV,1,1,0,*79
$GPGSV,3,1,09,02,12,295,36,03,22,147,30,06,23,248,32,07,69,277,36*7D
$GPGSV,3,2,09,09,61,019,37,16,17,043,28,23,43,070,26,30,42,241,37*7C
$GPGSV,3,3,09,28,02,189,*48
$GLGSV,1,1,0,*79
$GPGSA,A,3,02,03,06,07,09,16,23,30,,,,,1.1,0.7,0.8*31
$GPVTG,20.6,T,20.6,M,2.4,N,4.5,K,D*21
$GPRMC,073508,A,3206.217452,N,03512.420163,E,2.4,20.6,050416,0.0,E,D*24
$GPGGA,073508,3206.217452,N,03512.420163,E,2,08,0.7,660.0,M,19.0,M,,*48
$GPGSV,2,1,08,02,12,295,28,03,22,147,28,06,23,248,29,07,69,277,34*73
$GPGSV,2,2,08,09,61,019,38,16,17,043,31,30,42,241,35,28,02,189,*74
$GLGSV,1,1,0,*79
$GPGSV,2,1,08,02,12,295,28,03,22,147,28,06,23,248,29,07,69,277,34*73
$GPGSV,2,2,08,09,61,019,38,16,17,043,31,30,42,241,35,28,02,189,*74
$GLGSV,1,1,0,*79
$GPGSA,A,3,02,03,06,07,09,16,30,,,,,,1.3,1.0,0.8*34
$GPVTG,20.6,T,20.6,M,2.4,N,4.5,K,D*21
$GPRMC,073509,A,3206.218067,N,03512.419896,E,2.4,20.6,050416,0.0,E,D*21
$GPGGA,073509,3206.218067,N,03512.419896,E,2,07,1.0,661.0,M,19.0,M,,*45
$GPGSV,3,1,09,02,12,295,26,03,22,147,30,06,23,248,34,07,69,277,33*7F
$GPGSV,3,2,09,09,61,019,40,16,17,043,30,30,42,241,34,23,43,070,*72
$GPGSV,3,3,09,28,02,189,*48
$GLGSV,1,1,0,*79
$GPGSV,3,1,09,02,12,295,26,03,22,147,30,06,23,248,34,07,69,277,33*7F
$GPGSV,3,2,09,09,61,019,40,16,17,043,30,30,42,241,34,23,43,070,*72
$GPGSV,3,3,09,28,02,189,*48
$GLGSV,1,1,0,*79
$GPGSA,A,3,02,03,06,07,09,16,30,,,,,,1.3,1.0,0.8*34
$GPVTG,318.0,T,318.0,M,3.9,N,7.2,K,D*29
$GPRMC,073510,A,3206.219011,N,03512.419174,E,3.9,318.0,050416,0.0,E,D*1E
$GPGGA,073510,3206.219011,N,03512.419174,E,2,07,1.0,662.0,M,19.0,M,,*4B
$GPGSV,3,1,09,02,12,295,26,03,22,147,30,06,23,248,34,07,69,277,33*7F
$GPGSV,3,2,09,09,61,019,40,16,17,043,30,30,42,241,34,23,43,070,*72
$GPGSV,3,3,09,28,02,189,*48
$GLGSV,1,1,0,*79
$GPGSV,3,1,09,02,12,295,26,03,22,147,30,06,23,248,34,07,69,277,33*7F
$GPGSV,3,2,09,09,61,019,40,16,17,043,30,30,42,241,34,23,43,070,*72
$GPGSV,3,3,09,28,02,189,*48
$GLGSV,1,1,0,*79
$GPGSA,A,3,02,03,06,07,09,16,30,,,,,,1.3,1.0,0.8*34
$GPVTG,318.0,T,318.0,M,3.9,N,7.2,K,D*29
$GPRMC,073511,A,3206.219772,N,03512.418370,E,3.9,318.0,050416,0.0,E,D*1A
$GPGGA,073511,3206.219772,N,03512.418370,E,2,07,1.0,663.0,M,19.0,M,,*4E
$GPGSV,3,1,09,02,12,295,31,03,22,147,29,06,23,248,30,07,69,277,35*73
$GPGSV,3,2,09,09,61,019,36,30,42,241,35,16,17,043,,23,43,070,*71
$GPGSV,3,3,09,28,02,189,*48
$GLGSV,1,1,0,*79
$GPGSV,3,1,09,02,12,295,31,03,22,147,29,06,23,248,30,07,69,277,35*73
$GPGSV,3,2,09,09,61,019,36,30,42,241,35,16,17,043,,23,43,070,*71
$GPGSV,3,3,09,28,02,189,*48
$GLGSV,1,1,0,*79
$GPGSA,A,3,02,03,06,07,09,30,,,,,,,1.3,1.0,0.8*33
$GPVTG,358.2,T,358.2,M,1.9,N,3.6,K,D*2B
$GPRMC,073512,A,3206.220447,N,03512.418921,E,1.9,358.2,050416,0.0,E,D*1C
$GPGGA,073512,3206.220447,N,03512.418921,E,2,06,1.0,662.0,M,19.0,M,,*4C
$GPGSV,3,1,09,02,12,295,31,03,22,147,29,06,23,248,30,07,69,277,35*73
$GPGSV,3,2,09,09,61,019,36,30,42,241,35,16,17,043,,23,43,070,*71
$GPGSV,3,3,09,28,02,189,*48
$GLGSV,1,1,0,*79
$GPGSV,3,1,09,02,12,295,31,03,22,147,29,06,23,248,30,07,69,277,35*73
$GPGSV,3,2,09,09,61,019,36,30,42,241,35,16,17,043,,23,43,070,*71
$GPGSV,3,3,09,28,02,189,*48
$GLGSV,1,1,0,*79
$GPGSA,A,3,02,03,06,07,09,30,,,,,,,1.3,1.0,0.8*33
$GPVTG,358.2,T,358.2,M,1.9,N,3.6,K,D*2B
$GPRMC,073513,A,3206.220948,N,03512.418903,E,1.9,358.2,050416,0.0,E,D*1F
$GPGGA,073513,3206.220948,N,03512.418903,E,2,06,1.0,662.0,M,19.0,M,,*4F
$GPGSV,2,1,08,02,12,295,28,03,22,147,27,06,23,248,34,07,69,277,34*70
$GPGSV,2,2,08,09,61,019,34,30,42,241,39,23,43,070,,28,02,189,*71
$GLGSV,1,1,0,*79
$GPGSV,2,1,08,02,12,295,28,03,22,147,27,06,23,248,34,07,69,277,34*70
$GPGSV,2,2,08,09,61,019,34,30,42,241,39,23,43,070,,28,02,189,*71
$GLGSV,1,1,0,*79
$GPGSA,A,3,02,03,06,07,09,30,,,,,,,1.3,1.0,0.8*33
$GPVTG,343.5,T,343.5,M,2.9,N,5.4,K,D*2C
$GPRMC,073514,A,3206.222205,N,03512.418794,E,2.9,343.5,050416,0.0,E,D*16
$GPGGA,073514,3206.222205,N,03512.418794,E,2,06,1.0,663.0,M,19.0,M,,*49
$GPGSV,2,1,08,02,12,295,28,03,22,147,27,06,23,248,34,07,69,277,34*70
$GPGSV,2,2,08,09,61,019,34,30,42,241,39,23,43,070,,28,02,189,*71
$GLGSV,1,1,0,*79
$GPGSV,2,1,08,02,12,295,28,03,22,147,27,06,23,248,34,07,69,277,34*70
$GPGSV,2,2,08,09,61,019,34,30,42,241,39,23,43,070,,28,02,189,*71
$GLGSV,1,1,0,*79
$GPGSA,A,3,02,03,06,07,09,30,,,,,,,1.3,1.0,0.8*33
$GPVTG,343.5,T,343.5,M,2.9,N,5.4,K,D*2C
$GPRMC,073515,A,3206.222991,N,03512.418521,E,2.9,343.5,050416,0.0,E,D*1D
$GPGGA,073515,3206.222991,N,03512.418521,E,2,06,1.0,663.0,M,19.0,M,,*42
$GPGSV,2,1,08,02,12,295,23,06,23,248,34,07,69,277,38,09,61,019,38*7E
$GPGSV,2,2,08,30,42,241,36,16,17,043,,23,43,070,,28,02,189,*79
$GLGSV,1,1,0,*79
$GPGSV,2,1,08,02,12,295,23,06,23,248,34,07,69,277,38,09,61,019,38*7E
$GPGSV,2,2,08,30,42,241,36,16,17,043,,23,43,070,,28,02,189,*79
$GLGSV,1,1,0,*79
$GPGSA,A,3,02,06,07,09,30,,,,,,,,1.3,1.0,0.8*30
$GPVTG,350.8,T,350.8,M,3.4,N,6.3,K,D*24
$GPRMC,073516,A,3206.224731,N,03512.418428,E,3.4,350.8,050416,0.0,E,D*17
$GPGGA,073516,3206.224731,N,03512.418428,E,2,05,1.0,662.0,M,19.0,M,,*49
$GPGSV,3,1,09,02,12,295,22,06,23,248,32,07,69,277,35,09,61,019,34*78
$GPGSV,3,2,09,16,17,043,28,30,42,241,36,03,22,147,,23,43,070,*7A
$GPGSV,3,3,09,28,02,189,*48
$GLGSV,1,1,0,*79
$GPGSV,3,1,09,02,12,295,22,06,23,248,32,07,69,277,35,09,61,019,34*78
$GPGSV,3,2,09,16,17,043,28,30,42,241,36,03,22,147,,23,43,070,*7A
$GPGSV,3,3,09,28,02,189,*48
$GLGSV,1,1,0,*79
$GPGSA,A,3,02,06,07,09,16,30,,,,,,,1.1,0.8,0.8*3C
$GPVTG,349.2,T,349.2,M,2.9,N,5.4,K,D*2C
$GPRMC,073517,A,3206.225914,N,03512.418569,E,2.9,349.2,050416,0.0,E,D*14
$GPGGA,073517,3206.225914,N,03512.418569,E,2,06,0.8,662.0,M,19.0,M,,*4E
$GPGSV,3,1,09,02,12,295,26,03,22,147,17,06,23,248,31,07,69,277,35*79
$GPGSV,3,2,09,09,61,019,34,16,17,043,30,23,43,070,20,30,42,241,34*73
$GPGSV,3,3,09,28,02,189,*48
$GLGSV,2,1,07,73,35,216,33,70,59,348,35,80,81,343,30,79,23,028,29*6C
$GLGSV,2,2,07,71,11,323,26,69,50,115,,68,03,133,*51
$GPGSV,3,1,09,02,12,295,26,03,22,147,17,06,23,248,31,07,69,277,35*79
$GPGSV,3,2,09,09,61,019,34,16,17,043,30,23,43,070,20,30,42,241,34*73
$GPGSV,3,3,09,28,02,189,*48
$GLGSV,2,1,07,73,35,216,33,70,59,348,35,80,81,343,30,79,23,028,29*6C
$GLGSV,2,2,07,71,11,323,26,69,50,115,,68,03,133,*51
$GPGSA,A,3,02,03,06,07,09,16,23,30,,,,,1.1,0.8,0.8*3E
$GPVTG,1.0,T,1.0,M,2.9,N,5.4,K,D*2C
$GPRMC,073518,A,3206.227096,N,03512.419326,E,2.9,1.0,050416,0.0,E,D*1B
$GPGGA,073518,3206.227096,N,03512.419326,E,2,08,0.8,659.0,M,19.0,M,,*4A
$GPGSV,2,1,08,02,12,295,32,03,22,147,17,06,23,248,27,07,69,277,31*7F
$GPGSV,2,2,08,09,61,019,27,16,17,043,33,30,42,241,33,28,02,189,*7E
$GLGSV,2,1,07,73,35,216,33,70,59,348,34,80,81,343,30,79,23,028,31*64
$GLGSV,2,2,07,71,11,323,21,69,50,115,,68,03,133,*56
$GPGSV,2,1,08,02,12,295,32,03,22,147,17,06,23,248,27,07,69,277,31*7F
$GPGSV,2,2,08,09,61,019,27,16,17,043,33,30,42,241,33,28,02,189,*7E
$GLGSV,2,1,07,73,35,216,33,70,59,348,34,80,81,343,30,79,23,028,31*64
$GLGSV,2,2,07,71,11,323,21,69,50,115,,68,03,133,*56
$GPGSA,A,3,02,03,06,07,09,16,30,,,,,,1.1,0.8,0.8*3F
$GPVTG,15.4,T,15.4,M,2.4,N,4.5,K,D*21
$GPRMC,073519,A,3206.227486,N,03512.419605,E,2.4,15.4,050416,0.0,E,D*27
$GPGGA,073519,3206.227486,N,03512.419605,E,2,07,0.8,659.0,M,19.0,M,,*45
$GPGSV,3,1,09,02,12,295,27,06,23,248,32,07,69,277,28,09,61,019,31*74
$GPGSV,3,2,09,16,17,043,30,23,43,070,23,30,42,241,36,03,22,147,*72
$GPGSV,3,3,09,28,02,189,*48
$GLGSV,1,1,0,*79
$GPGSV,3,1,09,02,12,295,27,06,23,248,32,07,69,277,28,09,61,019,31*74
$GPGSV,3,2,09,16,17,043,30,23,43,070,23,30,42,241,36,03,22,147,*72
$GPGSV,3,3,09,28,02,189,*48
$GLGSV,1,1,0,*79
$GPGSA,A,3,02,06,07,09,16,23,30,,,,,,1.1,0.8,0.8*3D
$GPVTG,15.3,T,15.3,M,2.9,N,5.4,K,D*2C
$GPRMC,073520,A,3206.227977,N,03512.419720,E,2.9,15.3,050416,0.0,E,D*22
$GPGGA,073520,3206.227977,N,03512.419720,E,2,07,0.8,659.0,M,19.0,M,,*4A
$GPGSV,2,1,08,02,12,295,27,06,23,248,28,09,61,019,35,16,17,043,31*7F
$GPGSV,2,2,08,23,43,070,35,30,42,241,36,03,22,147,,28,02,189,*78
$GLGSV,1,1,0,*79
$GPGSV,2,1,08,02,12,295,27,06,23,248,28,09,61,019,35,16,17,043,31*7F
$GPGSV,2,2,08,23,43,070,35,30,42,241,36,03,22,147,,28,02,189,*78
$GLGSV,1,1,0,*79
$GPGSA,A,3,02,06,09,16,23,30,,,,,,,1.1,0.8,0.8*3A
$GPVTG,359.6,T,359.6,M,2.9,N,5.4,K,D*2C
$GPRMC,073521,A,3206.228982,N,03512.419807,E,2.9,359.6,050416,0.0,E,D*12
$GPGGA,073521,3206.228982,N,03512.419807,E,2,06,0.8,659.0,M,19.0,M,,*45
$GPGSV,2,1,08,02,12,295,26,07,69,277,27,09,61,019,37,16,17,043,34*75
$GPGSV,2,2,08,23,43,070,33,30,42,241,36,03,22,147,,28,02,189,*7E
$GLGSV,1,1,0,*79
$GPGSV,2,1,08,02,12,295,26,07,69,277,27,09,61,019,37,16,17,043,34*75
$GPGSV,2,2,08,23,43,070,33,30,42,241,36,03,22,147,,28,02,189,*7E
$GLGSV,1,1,0,*79
$GPGSA,A,3,02,07,09,16,23,30,,,,,,,1.1,0.8,0.8*3B
$GPVTG,21.0,T,21.0,M,2.4,N,4.5,K,D*21
$GPRMC,073522,A,3206.229781,N,03512.419411,E,2.4,21.0,050416,0.0,E,D*21
$GPGGA,073522,3206.229781,N,03512.419411,E,2,06,0.8,660.0,M,19.0,M,,*4B
$GPGSV,3,1,09,02,12,295,28,07,69,277,35,09,61,019,37,16,17,043,34*78
$GPGSV,3,2,09,23,43,070,32,30,42,241,30,03,22,147,,06,23,248,*78
$GPGSV,3,3,09,28,02,189,*48
$GLGSV,1,1,0,*79
$GPGSV,3,1,09,02,12,295,28,07,69,277,35,09,61,019,37,16,17,043,34*78
$GPGSV,3,2,09,23,43,070,32,30,42,241,30,03,22,147,,06,23,248,*78
$GPGSV,3,3,09,28,02,189,*48
$GLGSV,1,1,0,*79
$GPGSA,A,3,02,07,09,16,23,30,,,,,,,1.1,0.8,0.8*3B
$GPVTG,355.7,T,355.7,M,3.4,N,6.3,K,D*24
$GPRMC,073523,A,3206.230642,N,03512.419506,E,3.4,355.7,050416,0.0,E,D*17
$GPGGA,073523,3206.230642,N,03512.419506,E,2,06,0.8,659.0,M,19.0,M,,*41
$GPGSV,3,1,09,02,12,295,28,07,69,277,35,09,61,019,37,16,17,043,34*78
$GPGSV,3,2,09,23,43,070,32,30,42,241,30,03,22,147,,06,23,248,*78
$GPGSV,3,3,09,28,02,189,*48
$GLGSV,1,1,0,*79
$GPGSV,3,1,09,02,12,295,28,07,69,277,35,09,61,019,37,16,17,043,34*78
$GPGSV,3,2,09,23,43,070,32,30,42,241,30,03,22,147,,06,23,248,*78
$GPGSV,3,3,09,28,02,189,*48
$GLGSV,1,1,0,*79
$GPGSA,A,3,02,07,09,16,23,30,,,,,,,1.1,0.8,0.8*3B
$GPVTG,355.7,T,355.7,M,3.4,N,6.3,K,D*24
$GPRMC,073524,A,3206.231559,N,03512.419426,E,3.4,355.7,050416,0.0,E,D*1B
$GPGGA,073524,3206.231559,N,03512.419426,E,2,06,0.8,659.0,M,19.0,M,,*4D
$GPGSV,3,1,09,02,12,295,27,06,23,248,23,07,69,277,36,09,61,019,36*7C
$GPGSV,3,2,09,16,17,043,34,23,43,070,34,30,42,241,36,03,22,147,*70
$GPGSV,3,3,09,28,02,189,*48
$GLGSV,1,1,0,*79
$GPGSV,3,1,09,02,12,295,27,06,23,248,23,07,69,277,36,09,61,019,36*7C
$GPGSV,3,2,09,16,17,043,34,23,43,070,34,30,42,241,36,03,22,147,*70
$GPGSV,3,3,09,28,02,189,*48
$GLGSV,1,1,0,*79
$GPGSA,A,3,02,06,07,09,16,23,30,,,,,,1.8,1.6,0.9*3A
$GPVTG,37.8,T,37.8,M,1.5,N,2.7,K,D*27
$GPRMC,073525,A,3206.231773,N,03512.420073,E,1.5,37.8,050416,0.0,E,D*25
$GPGGA,073525,3206.231773,N,03512.420073,E,2,07,1.6,659.0,M,19.0,M,,*46
$GPGSV,2,1,08,02,12,295,28,07,69,277,33,09,61,019,35,16,17,043,35*7D
$GPGSV,2,2,08,23,43,070,37,30,42,241,36,03,22,147,,28,02,189,*7A
$GLGSV,1,1,0,*79
$GPGSV,2,1,08,02,12,295,28,07,69,277,33,09,61,019,35,16,17,043,35*7D
$GPGSV,2,2,08,23,43,070,37,30,42,241,36,03,22,147,,28,02,189,*7A
$GLGSV,1,1,0,*79
$GPGSA,A,3,02,07,09,16,23,30,,,,,,,1.8,1.6,0.9*3C
$GPVTG,11.0,T,11.0,M,1.9,N,3.6,K,D*2B
$GPRMC,073526,A,3206.232973,N,03512.419321,E,1.9,11.0,050416,0.0,E,D*25
$GPGGA,073526,3206.232973,N,03512.419321,E,2,06,1.6,657.0,M,19.0,M,,*49
$GPGSV,3,1,09,02,12,295,32,06,23,248,25,07,69,277,32,09,61,019,36*7A
$GPGSV,3,2,09,16,17,043,36,23,43,070,40,30,42,241,32,03,22,147,*75
$GPGSV,3,3,09,28,02,189,*48
$GLGSV,1,1,0,*79
$GPGSV,3,1,09,02,12,295,32,06,23,248,25,07,69,277,32,09,61,019,36*7A
$GPGSV,3,2,09,16,17,043,36,23,43,070,40,30,42,241,32,03,22,147,*75
$GPGSV,3,3,09,28,02,189,*48
$GLGSV,1,1,0,*79
$GPGSA,A,3,02,06,07,09,16,23,30,,,,,,1.8,1.6,0.9*3A
$GPVTG,357.2,T,357.2,M,2.9,N,5.4,K,D*2C
$GPRMC,073527,A,3206.233942,N,03512.419277,E,2.9,357.2,050416,0.0,E,D*15
$GPGGA,073527,3206.233942,N,03512.419277,E,2,07,1.6,656.0,M,19.0,M,,*49
$GPGSV,3,1,09,02,12,295,35,06,23,248,29,07,69,277,31,09,61,019,25*70
$GPGSV,3,2,09,16,17,043,28,23,43,070,37,30,42,241,30,03,22,147,*78
$GPGSV,3,3,09,28,02,189,*48
$GLGSV,1,1,0,*79
$GPGSV,3,1,09,02,12,295,35,06,23,248,29,07,69,277,31,09,61,019,25*70
$GPGSV,3,2,09,16,17,043,28,23,43,070,37,30,42,241,30,03,22,147,*78
$GPGSV,3,3,09,28,02,189,*48
$GLGSV,1,1,0,*79
$GPGSA,A,3,02,06,07,09,16,23,30,,,,,,1.8,1.6,0.9*3A
$GPVTG,357.2,T,357.2,M,1.0,N,1.8,K,D*2E
$GPRMC,073528,A,3206.234035,N,03512.419699,E,1.0,357.2,050416,0.0,E,D*1A
$GPGGA,073528,3206.234035,N,03512.419699,E,2,07,1.6,657.0,M,19.0,M,,*4D
$GPGSV,3,1,09,02,12,295,34,06,23,248,32,07,69,277,34,09,61,019,36*7C
$GPGSV,3,2,09,16,17,043,31,23,43,070,32,30,42,241,33,03,22,147,*76
$GPGSV,3,3,09,28,02,189,*48
$GLGSV,1,1,0,*79
$GPGSV,3,1,09,02,12,295,34,06,23,248,32,07,69,277,34,09,61,019,36*7C
$GPGSV,3,2,09,16,17,043,31,23,43,070,32,30,42,241,33,03,22,147,*76
$GPGSV,3,3,09,28,02,189,*48
$GLGSV,1,1,0,*79
$GPGSA,A,3,02,06,07,09,16,23,30,,,,,,1.8,1.6,0.9*3A
$GPVTG,,T,,M,0.0,N,0.0,K,D*26
$GPRMC,073529,A,3206.233887,N,03512.420202,E,0.0,,050416,0.0,E,D*3D
$GPGGA,073529,3206.233887,N,03512.420202,E,2,07,1.6,658.0,M,19.0,M,,*49
$GPGSV,3,1,09,02,12,295,30,06,23,248,30,07,69,277,32,09,61,019,35*7F
$GPGSV,3,2,09,16,17,043,26,23,43,070,32,30,42,241,25,03,22,147,*77
$GPGSV,3,3,09,28,02,189,*48
$GLGSV,1,1,0,*79
$GPGSV,3,1,09,02,12,295,30,06,23,248,30,07,69,277,32,09,61,019,35*7F
$GPGSV,3,2,09,16,17,043,26,23,43,070,32,30,42,241,25,03,22,147,*77
$GPGSV,3,3,09,28,02,189,*48
$GLGSV,1,1,0,*79
$GPGSA,A,3,02,06,07,09,16,23,30,,,,,,1.8,1.6,0.9*3A
$GPVTG,,T,,M,0.0,N,0.0,K,D*26
$GPRMC,073530,A,3206.234210,N,03512.419847,E,0.0,,050416,0.0,E,D*37
$GPGGA,073530,3206.234210,N,03512.419847,E,2,07,1.6,657.0,M,19.0,M,,*4C
$GPGSV,3,1,09,02,12,295,27,06,23,248,26,07,69,277,29,09,61,019,38*79
$GPGSV,3,2,09,16,17,043,31,23,43,070,33,30,42,241,31,03,22,147,*75
$GPGSV,3,3,09,28,02,189,*48
$GLGSV,1,1,0,*79
$GPGSV,3,1,09,02,12,295,27,06,23,248,26,07,69,277,29,09,61,019,38*79
$GPGSV,3,2,09,16,17,043,31,23,43,070,33,30,42,241,31,03,22,147,*75
$GPGSV,3,3,09,28,02,189,*48
$GLGSV,1,1,0,*79
$GPGSA,A,3,02,06,07,09,16,23,30,,,,,,1.8,1.6,0.9*3A
$GPVTG,,T,,M,0.0,N,0.0,K,D*26
$GPRMC,073531,A,3206.234130,N,03512.419866,E,0.0,,050416,0.0,E,D*34
$GPGGA,073531,3206.234130,N,03512.419866,E,2,07,1.6,657.0,M,19.0,M,,*4F
$GPGSV,3,1,09,02,12,295,27,06,23,248,34,07,69,277,38,09,61,019,36*74
$GPGSV,3,2,09,16,17,043,32,23,43,070,36,30,42,241,39,03,22,147,*7B
$GPGSV,3,3,09,28,02,189,*48
$GLGSV,1,1,0,*79
$GPGSV,3,1,09,02,12,295,27,06,23,248,34,07,69,277,38,09,61,019,36*74
$GPGSV,3,2,09,16,17,043,32,23,43,070,36,30,42,241,39,03,22,147,*7B
$GPGSV,3,3,09,28,02,189,*48
$GLGSV,1,1,0,*79
$GPGSA,A,3,02,06,07,09,16,23,30,,,,,,1.8,1.6,0.9*3A
$GPVTG,359.2,T,359.2,M,1.5,N,2.7,K,D*27
$GPRMC,073532,A,3206.234183,N,03512.419866,E,1.5,359.2,050416,0.0,E,D*18
$GPGGA,073532,3206.234183,N,03512.419866,E,2,07,1.6,657.0,M,19.0,M,,*44
$GPGSV,3,1,09,02,12,295,30,06,23,248,34,07,69,277,37,09,61,019,36*7D
$GPGSV,3,2,09,16,17,043,32,23,43,070,32,30,42,241,32,03,22,147,*74
$GPGSV,3,3,09,28,02,189,*48
$GLGSV,1,1,0,*79
$GPGSV,3,1,09,02,12,295,30,06,23,248,34,07,69,277,37,09,61,019,36*7D
$GPGSV,3,2,09,16,17,043,32,23,43,070,32,30,42,241,32,03,22,147,*74
$GPGSV,3,3,09,28,02,189,*48
$GLGSV,1,1,0,*79
$GPGSA,A,3,02,06,07,09,16,23,30,,,,,,1.8,1.6,0.9*3A
$GPVTG,359.2,T,359.2,M,1.5,N,2.7,K,D*27
$GPRMC,073533,A,3206.234467,N,03512.420226,E,1.5,359.2,050416,0.0,E,D*12
$GPGGA,073533,3206.234467,N,03512.420226,E,2,07,1.6,657.0,M,19.0,M,,*4E
$GPGSV,3,1,09,02,12,295,29,06,23,248,35,07,69,277,33,09,61,019,37*71
$GPGSV,3,2,09,16,17,043,29,23,43,070,36,30,42,241,33,03,22,147,*7B
$GPGSV,3,3,09,28,02,189,*48
$GLGSV,1,1,0,*79
$GPGSV,3,1,09,02,12,295,29,06,23,248,35,07,69,277,33,09,61,019,37*71
$GPGSV,3,2,09,16,17,043,29,23,43,070,36,30,42,241,33,03,22,147,*7B
$GPGSV,3,3,09,28,02,189,*48
$GLGSV,1,1,0,*79
$GPGSA,A,3,02,06,07,09,16,23,30,,,,,,1.8,1.6,0.9*3A
$GPVTG,359.2,T,359.2,M,1.5,N,2.7,K,D*27
$GPRMC,073534,A,3206.234971,N,03512.420098,E,1.5,359.2,050416,0.0,E,D*18
$GPGGA,073534,3206.234971,N,03512.420098,E,2,07,1.6,658.0,M,19.0,M,,*4B
$GPGSV,3,1,09,02,12,295,29,06,23,248,35,07,69,277,33,09,61,019,37*71
$GPGSV,3,2,09,16,17,043,29,23,43,070,36,30,42,241,33,03,22,147,*7B
$GPGSV,3,3,09,28,02,189,*48
$GLGSV,1,1,0,*79
$GPGSV,3,1,09,02,12,295,29,06,23,248,35,07,69,277,33,09,61,019,37*71
$GPGSV,3,2,09,16,17,043,29,23,43,070,36,30,42,241,33,03,22,147,*7B
$GPGSV,3,3,09,28,02,189,*48
$GLGSV,1,1,0,*79
$GPGSA,A,3,02,06,07,09,16,23,30,,,,,,1.8,1.6,0.9*3A
$GPVTG,359.2,T,359.2,M,1.5,N,2.7,K,D*27
$GPRMC,073535,A,3206.235302,N,03512.420355,E,1.5,359.2,050416,0.0,E,D*14
$GPGGA,073535,3206.235302,N,03512.420355,E,2,07,1.6,658.0,M,19.0,M,,*47
$GPGSV,3,1,09,02,12,295,23,06,23,248,32,07,69,277,33,09,61,019,35*7E
$GPGSV,3,2,09,16,17,043,27,23,43,070,36,30,42,241,35,03,22,147,*73
$GPGSV,3,3,09,28,02,189,*48
$GLGSV,1,1,0,*79
$GPGSV,3,1,09,02,12,295,23,06,23,248,32,07,69,277,33,09,61,019,35*7E
$GPGSV,3,2,09,16,17,043,27,23,43,070,36,30,42,241,35,03,22,147,*73
$GPGSV,3,3,09,28,02,189,*48
$GLGSV,1,1,0,*79
$GPGSA,A,3,02,06,07,09,16,23,30,,,,,,1.8,1.6,0.9*3A
$GPVTG,9.8,T,9.8,M,2.9,N,5.4,K,D*2C
$GPRMC,073536,A,3206.236440,N,03512.420452,E,2.9,9.8,050416,0.0,E,D*16
$GPGGA,073536,3206.236440,N,03512.420452,E,2,07,1.6,657.0,M,19.0,M,,*49
$GPGSV,3,1,09,02,12,295,23,06,23,248,32,07,69,277,33,09,61,019,35*7E
$GPGSV,3,2,09,16,17,043,27,23,43,070,36,30,42,241,35,03,22,147,*73
$GPGSV,3,3,09,28,02,189,*48
$GLGSV,1,1,0,*79
$GPGSV,3,1,09,02,12,295,23,06,23,248,32,07,69,277,33,09,61,019,35*7E
$GPGSV,3,2,09,16,17,043,27,23,43,070,36,30,42,241,35,03,22,147,*73
$GPGSV,3,3,09,28,02,189,*48
$GLGSV,1,1,0,*79
$GPGSA,A,3,02,06,07,09,16,23,30,,,,,,1.8,1.6,0.9*3A
$GPVTG,9.8,T,9.8,M,2.9,N,5.4,K,D*2C
$GPRMC,073537,A,3206.237197,N,03512.420605,E,2.9,9.8,050416,0.0,E,D*19
$GPGGA,073537,3206.237197,N,03512.420605,E,2,07,1.6,657.0,M,19.0,M,,*46
$GPGSV,3,1,09,02,12,295,24,03,22,147,25,06,23,248,30,07,69,277,31*7F
$GPGSV,3,2,09,09,61,019,38,16,17,043,26,23,43,070,35,30,42,241,37*7F
$GPGSV,3,3,09,28,02,189,*48
$GLGSV,1,1,0,*79
$GPGSV,3,1,09,02,12,295,24,03,22,147,25,06,23,248,30,07,69,277,31*7F
$GPGSV,3,2,09,09,61,019,38,16,17,043,26,23,43,070,35,30,42,241,37*7F
$GPGSV,3,3,09,28,02,189,*48
$GLGSV,1,1,0,*79
$GPGSA,A,3,02,03,06,07,09,16,23,30,,,,,1.3,1.0,0.8*35
$GPVTG,353.5,T,353.5,M,2.9,N,5.4,K,D*2C
$GPRMC,073538,A,3206.237688,N,03512.420968,E,2.9,353.5,050416,0.0,E,D*1A
$GPGGA,073538,3206.237688,N,03512.420968,E,2,08,1.0,657.0,M,19.0,M,,*4D
$GPGSV,2,1,07,03,22,147,28,06,23,248,29,07,69,277,34,09,61,019,36*7A
$GPGSV,2,2,07,23,43,070,33,30,42,241,37,28,02,189,*41
$GLGSV,1,1,0,*79
$GPGSV,2,1,07,03,22,147,28,06,23,248,29,07,69,277,34,09,61,019,36*7A
$GPGSV,2,2,07,23,43,070,33,30,42,241,37,28,02,189,*41
$GLGSV,1,1,0,*79
$GPGSA,A,3,03,06,07,09,23,30,,,,,,,1.3,1.0,0.8*30
$GPVTG,40.6,T,40.6,M,1.9,N,3.6,K,D*2B
$GPRMC,073539,A,3206.238107,N,03512.421431,E,1.9,40.6,050416,0.0,E,D*25
$GPGGA,073539,3206.238107,N,03512.421431,E,2,06,1.0,657.0,M,19.0,M,,*4D
$GPGSV,2,1,07,03,22,147,28,06,23,248,29,07,69,277,34,09,61,019,36*7A
$GPGSV,2,2,07,23,43,070,33,30,42,241,37,28,02,189,*41
$GLGSV,1,1,0,*79
$GPGSV,2,1,07,03,22,147,28,06,23,248,29,07,69,277,34,09,61,019,36*7A
$GPGSV,2,2,07,23,43,070,33,30,42,241,37,28,02,189,*41
$GLGSV,1,1,0,*79
$GPGSA,A,3,03,06,07,09,23,30,,,,,,,1.3,1.0,0.8*30
$GPVTG,40.6,T,40.6,M,1.9,N,3.6,K,D*2B
$GPRMC,073540,A,3206.238477,N,03512.421802,E,1.9,40.6,050416,0.0,E,D*25
$GPGGA,073540,3206.238477,N,03512.421802,E,2,06,1.0,657.0,M,19.0,M,,*4D
$GPGSV,2,1,08,03,22,147,30,06,23,248,31,07,69,277,35,09,61,019,39*7B
$GPGSV,2,2,08,16,17,043,29,23,43,070,35,30,42,241,29,28,02,189,*7A
$GLGSV,1,1,0,*79
$GPGSV,2,1,08,03,22,147,30,06,23,248,31,07,69,277,35,09,61,019,39*7B
$GPGSV,2,2,08,16,17,043,29,23,43,070,35,30,42,241,29,28,02,189,*7A
$GLGSV,1,1,0,*79
$GPGSA,A,3,03,06,07,09,16,23,30,,,,,,1.3,1.0,0.8*37
$GPVTG,97.1,T,97.1,M,1.9,N,3.6,K,D*2B
$GPRMC,073541,A,3206.238441,N,03512.422713,E,1.9,97.1,050416,0.0,E,D*20
$GPGGA,073541,3206.238441,N,03512.422713,E,2,07,1.0,658.0,M,19.0,M,,*4B
